{"b_230": {"address": "144 Rue du Rajol, 34130 Mauguio, France", "bbox": {"northeast": [43.59205421757068, 3.94874002047481], "southwest": [43.584328782429324, 3.93451977952519]}, "city": "Mauguio", "confidence": 7, "country": "France", "lat": 43.5881915, "lng": 3.9416299, "neighborhood": "Vaugui\u00e8res Le Bas", "ok": true, "postal": "34130", "quality": "Address", "raw": {"__type": "Location:http://schemas.microsoft.com/search/local/ws/rest/v1", "bbox": [43.584328782429324, 3.93451977952519, 43.59205421757068, 3.94874002047481], "name": "144 Rue du Rajol, 34130 Mauguio, France", "point": {"type": "Point", "coordinates": [43.5881915, 3.9416299]}, "address": {"addressLine": "144 Rue du Rajol", "adminDistrict": "Occitanie", "adminDistrict2": "H\u00e9rault", "countryRegion": "France", "formattedAddress": "144 Rue du Rajol, 34130 Mauguio, France", "locality": "Mauguio", "neighborhood": "Vaugui\u00e8res Le Bas", "postalCode": "34130"}, "confidence": "High", "entityType": "Address", "geocodePoints": [{"type": "Point", "coordinates": [43.5881915, 3.9416299], "calculationMethod": "Rooftop", "usageTypes": ["Display"]}, {"type": "Point", "coordinates": [43.588217, 3.9419129], "calculationMethod": "Rooftop", "usageTypes": ["Route"]}], "matchCodes": ["Good"]}, "state": "Occitanie", "status": "OK", "street": "144 Rue du Rajol"}, "b_299": {"address": "299 Route de la C\u00f4te d'Amour, 44600 St.-Nazaire, France", "bbox": {"northeast": [47.260857817570674, -2.254618314093865], "southwest": [47.25313238242932, -2.2697938859061355]}, "city": "St.-Nazaire", "confidence": 7, "country": "France", "lat": 47.2569951, "lng": -2.2622061, "ok": true, "postal": "44600", "quality": "Address", "raw": {"__type": "Location:http://schemas.microsoft.com/search/local/ws/rest/v1", "bbox": [47.25313238242932, -2.2697938859061355, 47.260857817570674, -2.254618314093865], "name": "299 Route de la C\u00f4te d'Amour, 44600 St.-Nazaire, France", "point": {"type": "Point", "coordinates": [47.2569951, -2.2622061]}, "address": {"addressLine": "299 Route de la C\u00f4te d'Amour", "adminDistrict": "Pays de la Loire", "adminDistrict2": "Loire-Atlantique", "countryRegion": "France", "formattedAddress": "299 Route de la C\u00f4te d'Amour, 44600 St.-Nazaire, France", "locality": "St.-Nazaire", "postalCode": "44600"}, "confidence": "High", "entityType": "Address", "geocodePoints": [{"type": "Point", "coordinates": [47.2569951, -2.2622061], "calculationMethod": "Rooftop", "usageTypes": ["Display"]}, {"type": "Point", "coordinates": [47.2572013, -2.2622644], "calculationMethod": "Rooftop", "usageTypes": ["Route"]}], "matchCodes": ["Good"]}, "state": "Pays de la Loire", "status": "OK", "street": "299 Route de la C\u00f4te d'Amour"}, "b_310": {"address": "953 Avenue de Bordeaux, 47300 Bias, France", "bbox": {"northeast": [44.407273717570675, 0.6861700636518204], "southwest": [44.39954828242932, 0.6717531363481797]}, "city": "Bias", "confidence": 7, "country": "France", "lat": 44.403411, "lng": 0.6789616, "ok": true, "postal": "47300", "quality": "Address", "raw": {"__type": "Location:http://schemas.microsoft.com/search/local/ws/rest/v1", "bbox": [44.39954828242932, 0.6717531363481797, 44.407273717570675, 0.6861700636518204], "name": "953 Avenue de Bordeaux, 47300 Bias, France", "point": {"type": "Point", "coordinates": [44.403411, 0.6789616]}, "address": {"addressLine": "953 Avenue de Bordeaux", "adminDistrict": "Nouvelle-Aquitaine", "adminDistrict2": "Lot-et-Garonne", "countryRegion": "France", "formattedAddress": "953 Avenue de Bordeaux, 47300 Bias, France", "locality": "Bias", "postalCode": "47300"}, "confidence": "High", "entityType": "Address", "geocodePoints": [{"type": "Point", "coordinates": [44.403411, 0.6789616], "calculationMethod": "Rooftop", "usageTypes": ["Display"]}, {"type": "Point", "coordinates": [44.403475, 0.678953], "calculationMethod": "Rooftop", "usageTypes": ["Route"]}], "matchCodes": ["Good"]}, "state": "Nouvelle-Aquitaine", "status": "OK", "street": "953 Avenue de Bordeaux"}, "b_17": {"address": "Promenade du 7\u00e8me Art, 77200 Torcy, France", "bbox": {"northeast": [48.84487921788008, 2.6607882933649902], "southwest": [48.837153782738724, 2.64513870648119]}, "city": "Torcy", "confidence": 7, "country": "France", "lat": 48.8410165, "lng": 2.6529635, "ok": true, "postal": "77200", "quality": "RoadBlock", "raw": {"__type": "Location:http://schemas.microsoft.com/search/local/ws/rest/v1", "bbox": [48.837153782738724, 2.64513870648119, 48.84487921788008, 2.6607882933649902], "name": "Promenade du 7\u00e8me Art, 77200 Torcy, France", "point": {"type": "Point", "coordinates": [48.8410165, 2.6529635]}, "address": {"addressLine": "Promenade du 7\u00e8me Art", "adminDistrict": "\u00cele-de-France", "adminDistrict2": "Seine-et-Marne", "countryRegion": "France", "formattedAddress": "Promenade du 7\u00e8me Art, 77200 Torcy, France", "locality": "Torcy", "postalCode": "77200"}, "confidence": "Medium", "entityType": "RoadBlock", "geocodePoints": [{"type": "Point", "coordinates": [48.8410165, 2.6529635], "calculationMethod": "Interpolation", "usageTypes": ["Display"]}], "matchCodes": ["Good"]}, "state": "\u00cele-de-France", "status": "OK", "street": "Promenade du 7\u00e8me Art"}, "b_519": {"address": "125 All\u00e9e de Montaignac, 97427 L'\u00c9tang-Sal\u00e9, Reunion", "bbox": {"northeast": [-21.259922282429322, 55.36708838793425], "southwest": [-21.267647717570675, 55.356035612065746]}, "city": "L'\u00c9tang-Sal\u00e9", "confidence": 7, "country": "Reunion", "lat": -21.263785, "lng": 55.361562, "ok": true, "postal": "97427", "quality": "Address", "raw": {"__type": "Location:http://schemas.microsoft.com/search/local/ws/rest/v1", "bbox": [-21.267647717570675, 55.356035612065746, -21.259922282429322, 55.36708838793425], "name": "125 All\u00e9e de Montaignac, 97427 L'\u00c9tang-Sal\u00e9, Reunion", "point": {"type": "Point", "coordinates": [-21.263785, 55.361562]}, "address": {"addressLine": "125 All\u00e9e de Montaignac", "countryRegion": "Reunion", "formattedAddress": "125 All\u00e9e de Montaignac, 97427 L'\u00c9tang-Sal\u00e9, Reunion", "locality": "L'\u00c9tang-Sal\u00e9", "postalCode": "97427"}, "confidence": "High", "entityType": "Address", "geocodePoints": [{"type": "Point", "coordinates": [-21.263785, 55.361562], "calculationMethod": "Rooftop", "usageTypes": ["Display"]}, {"type": "Point", "coordinates": [-21.263685, 55.361683], "calculationMethod": "Rooftop", "usageTypes": ["Route"]}], "matchCodes": ["Good"]}, "status": "OK", "street": "125 All\u00e9e de Montaignac"}, "b_15": {"address": "288 Rue des Roses, 77170 Servon, France", "bbox": {"northeast": [48.71838944865647, 2.5849455559432886], "southwest": [48.710664013515114, 2.5693353482454087]}, "city": "Servon", "confidence": 7, "country": "France", "lat": 48.71452673, "lng": 2.57714045, "ok": true, "postal": "77170", "quality": "Address", "raw": {"__type": "Location:http://schemas.microsoft.com/search/local/ws/rest/v1", "bbox": [48.710664013515114, 2.5693353482454087, 48.71838944865647, 2.5849455559432886], "name": "288 Rue des Roses, 77170 Servon, France", "point": {"type": "Point", "coordinates": [48.71452673, 2.57714045]}, "address": {"addressLine": "288 Rue des Roses", "adminDistrict": "\u00cele-de-France", "adminDistrict2": "Seine-et-Marne", "countryRegion": "France", "formattedAddress": "288 Rue des Roses, 77170 Servon, France", "locality": "Servon", "postalCode": "77170"}, "confidence": "High", "entityType": "Address", "geocodePoints": [{"type": "Point", "coordinates": [48.71452673, 2.57714045], "calculationMethod": "InterpolationOffset", "usageTypes": ["Display"]}, {"type": "Point", "coordinates": [48.71449173, 2.57718324], "calculationMethod": "Interpolation", "usageTypes": ["Route"]}], "matchCodes": ["Good"]}, "state": "\u00cele-de-France", "status": "OK", "street": "288 Rue des Roses"}, "b_252": {"address": "Rue du Marais, 35132 Vezin-le-Coquet, France", "bbox": {"northeast": [48.10793863245548, -1.728998289920779], "southwest": [48.100213197314126, -1.744422250381141]}, "city": "Vezin-le-Coquet", "confidence": 7, "country": "France", "lat": 48.10407591, "lng": -1.73671027, "ok": true, "postal": "35132", "quality": "RoadBlock", "raw": {"__type": "Location:http://schemas.microsoft.com/search/local/ws/rest/v1", "bbox": [48.100213197314126, -1.744422250381141, 48.10793863245548, -1.728998289920779], "name": "Rue du Marais, 35132 Vezin-le-Coquet, France", "point": {"type": "Point", "coordinates": [48.10407591, -1.73671027]}, "address": {"addressLine": "Rue du Marais", "adminDistrict": "Brittany", "adminDistrict2": "Ille-et-Vilaine", "countryRegion": "France", "formattedAddress": "Rue du Marais, 35132 Vezin-le-Coquet, France", "locality": "Vezin-le-Coquet", "postalCode": "35132"}, "confidence": "Low", "entityType": "RoadBlock", "geocodePoints": [{"type": "Point", "coordinates": [48.10407591, -1.73671027], "calculationMethod": "Interpolation", "usageTypes": ["Display"]}], "matchCodes": ["UpHierarchy"]}, "state": "Brittany", "status": "OK", "street": "Rue du Marais"}, "b_258": {"address": "35 Rue Sylvain Rebrioux, 36130 D\u00e9ols, France", "bbox": {"northeast": [46.845172517570674, 1.7133836876266024], "southwest": [46.83744708242932, 1.6983259123733976]}, "city": "D\u00e9ols", "confidence": 7, "country": "France", "lat": 46.8413098, "lng": 1.7058548, "ok": true, "postal": "36130", "quality": "Address", "raw": {"__type": "Location:http://schemas.microsoft.com/search/local/ws/rest/v1", "bbox": [46.83744708242932, 1.6983259123733976, 46.845172517570674, 1.7133836876266024], "name": "35 Rue Sylvain Rebrioux, 36130 D\u00e9ols, France", "point": {"type": "Point", "coordinates": [46.8413098, 1.7058548]}, "address": {"addressLine": "35 Rue Sylvain Rebrioux", "adminDistrict": "Centre-Val de Loire", "adminDistrict2": "Indre", "countryRegion": "France", "formattedAddress": "35 Rue Sylvain Rebrioux, 36130 D\u00e9ols, France", "locality": "D\u00e9ols", "postalCode": "36130"}, "confidence": "High", "entityType": "Address", "geocodePoints": [{"type": "Point", "coordinates": [46.8413098, 1.7058548], "calculationMethod": "Rooftop", "usageTypes": ["Display"]}, {"type": "Point", "coordinates": [46.8415351, 1.7055891], "calculationMethod": "Rooftop", "usageTypes": ["Route"]}], "matchCodes": ["Good"]}, "state": "Centre-Val de Loire", "status": "OK", "street": "35 Rue Sylvain Rebrioux"}, "b_210": {"address": "6 All\u00e9e Olympe de Gouges, 31770 Colomiers, France", "bbox": {"northeast": [43.599355117570674, 1.3609416829419019], "southwest": [43.59162968242932, 1.3467197170580982]}, "city": "Colomiers", "confidence": 7, "country": "France", "lat": 43.5954924, "lng": 1.3538307, "ok": true, "postal": "31770", "quality": "Address", "raw": {"__type": "Location:http://schemas.microsoft.com/search/local/ws/rest/v1", "bbox": [43.59162968242932, 1.3467197170580982, 43.599355117570674, 1.3609416829419019], "name": "6 All\u00e9e Olympe de Gouges, 31770 Colomiers, France", "point": {"type": "Point", "coordinates": [43.5954924, 1.3538307]}, "address": {"addressLine": "6 All\u00e9e Olympe de Gouges", "adminDistrict": "Occitanie", "adminDistrict2": "Haute-Garonne", "countryRegion": "France", "formattedAddress": "6 All\u00e9e Olympe de Gouges, 31770 Colomiers, France", "locality": "Colomiers", "postalCode": "31770"}, "confidence": "High", "entityType": "Address", "geocodePoints": [{"type": "Point", "coordinates": [43.5954924, 1.3538307], "calculationMethod": "Rooftop", "usageTypes": ["Display"]}, {"type": "Point", "coordinates": [43.5957483, 1.3531598], "calculationMethod": "Rooftop", "usageTypes": ["Route"]}], "matchCodes": ["Good"]}, "state": "Occitanie", "status": "OK", "street": "6 All\u00e9e Olympe de Gouges"}, "b_148": {"address": "7 Chemin des Gen\u00eats, 20000 Ajaccio, France", "bbox": {"northeast": [41.913858717570676, 8.709048200116667], "southwest": [41.90613328242932, 8.695207799883333]}, "city": "Ajaccio", "confidence": 7, "country": "France", "lat": 41.909996, "lng": 8.702128, "ok": true, "postal": "20000", "quality": "Address", "raw": {"__type": "Location:http://schemas.microsoft.com/search/local/ws/rest/v1", "bbox": [41.90613328242932, 8.695207799883333, 41.913858717570676, 8.709048200116667], "name": "7 Chemin des Gen\u00eats, 20000 Ajaccio, France", "point": {"type": "Point", "coordinates": [41.909996, 8.702128]}, "address": {"addressLine": "7 Chemin des Gen\u00eats", "adminDistrict": "Corsica", "countryRegion": "France", "formattedAddress": "7 Chemin des Gen\u00eats, 20000 Ajaccio, France", "locality": "Ajaccio", "postalCode": "20000"}, "confidence": "Low", "entityType": "Address", "geocodePoints": [{"type": "Point", "coordinates": [41.909996, 8.702128], "calculationMethod": "Rooftop", "usageTypes": ["Display"]}, {"type": "Point", "coordinates": [41.9096557, 8.7020283], "calculationMethod": "Rooftop", "usageTypes": ["Route"]}], "matchCodes": ["Good"]}, "state": "Corsica", "status": "OK", "street": "7 Chemin des Gen\u00eats"}, "b_166": {"address": "45 Rue des Terres Rouges, 25490 Allenjoie, France", "bbox": {"northeast": [47.53416271757067, 6.893303235158329], "southwest": [47.52643728242932, 6.8780487648416715]}, "city": "Allenjoie", "confidence": 7, "country": "France", "lat": 47.5303, "lng": 6.885676, "ok": true, "postal": "25490", "quality": "Address", "raw": {"__type": "Location:http://schemas.microsoft.com/search/local/ws/rest/v1", "bbox": [47.52643728242932, 6.8780487648416715, 47.53416271757067, 6.893303235158329], "name": "45 Rue des Terres Rouges, 25490 Allenjoie, France", "point": {"type": "Point", "coordinates": [47.5303, 6.885676]}, "address": {"addressLine": "45 Rue des Terres Rouges", "adminDistrict": "Bourgogne-Franche-Comt\u00e9", "adminDistrict2": "Doubs", "countryRegion": "France", "formattedAddress": "45 Rue des Terres Rouges, 25490 Allenjoie, France", "locality": "Allenjoie", "postalCode": "25490"}, "confidence": "High", "entityType": "Address", "geocodePoints": [{"type": "Point", "coordinates": [47.5303, 6.885676], "calculationMethod": "Rooftop", "usageTypes": ["Display"]}, {"type": "Point", "coordinates": [47.5302671, 6.8856065], "calculationMethod": "Rooftop", "usageTypes": ["Route"]}], "matchCodes": ["Good"]}, "state": "Bourgogne-Franche-Comt\u00e9", "status": "OK", "street": "45 Rue des Terres Rouges"}, "b_74": {"address": "47 Avenue Maurice Chevalier, 06150 Cannes, France", "bbox": {"northeast": [43.55798061757068, 6.966600399595765], "southwest": [43.550255182429325, 6.952388200404235]}, "city": "Cannes", "confidence": 7, "country": "France", "lat": 43.5541179, "lng": 6.9594943, "ok": true, "postal": "06150", "quality": "Address", "raw": {"__type": "Location:http://schemas.microsoft.com/search/local/ws/rest/v1", "bbox": [43.550255182429325, 6.952388200404235, 43.55798061757068, 6.966600399595765], "name": "47 Avenue Maurice Chevalier, 06150 Cannes, France", "point": {"type": "Point", "coordinates": [43.5541179, 6.9594943]}, "address": {"addressLine": "47 Avenue Maurice Chevalier", "adminDistrict": "Provence-Alpes-C\u00f4te d'Azur", "adminDistrict2": "Maritime Alps", "countryRegion": "France", "formattedAddress": "47 Avenue Maurice Chevalier, 06150 Cannes, France", "locality": "Cannes", "postalCode": "06150"}, "confidence": "High", "entityType": "Address", "geocodePoints": [{"type": "Point", "coordinates": [43.5541179, 6.9594943], "calculationMethod": "Rooftop", "usageTypes": ["Display"]}, {"type": "Point", "coordinates": [43.5541296, 6.9595542], "calculationMethod": "Rooftop", "usageTypes": ["Route"]}], "matchCodes": ["Good"]}, "state": "Provence-Alpes-C\u00f4te d'Azur", "status": "OK", "street": "47 Avenue Maurice Chevalier"}, "b_81": {"address": "5 Rue du Port, 06310 Beaulieu-sur-Mer, France", "bbox": {"northeast": [43.71121661757068, 7.340928538014628], "southwest": [43.703491182429325, 7.326680061985371]}, "city": "Beaulieu-sur-Mer", "confidence": 7, "country": "France", "lat": 43.7073539, "lng": 7.3338043, "ok": true, "postal": "06310", "quality": "Address", "raw": {"__type": "Location:http://schemas.microsoft.com/search/local/ws/rest/v1", "bbox": [43.703491182429325, 7.326680061985371, 43.71121661757068, 7.340928538014628], "name": "5 Rue du Port, 06310 Beaulieu-sur-Mer, France", "point": {"type": "Point", "coordinates": [43.7073539, 7.3338043]}, "address": {"addressLine": "5 Rue du Port", "adminDistrict": "Provence-Alpes-C\u00f4te d'Azur", "adminDistrict2": "Maritime Alps", "countryRegion": "France", "formattedAddress": "5 Rue du Port, 06310 Beaulieu-sur-Mer, France", "locality": "Beaulieu-sur-Mer", "postalCode": "06310"}, "confidence": "High", "entityType": "Address", "geocodePoints": [{"type": "Point", "coordinates": [43.7073539, 7.3338043], "calculationMethod": "Rooftop", "usageTypes": ["Display"]}, {"type": "Point", "coordinates": [43.7073654, 7.3337992], "calculationMethod": "Rooftop", "usageTypes": ["Route"]}], "matchCodes": ["Good"]}, "state": "Provence-Alpes-C\u00f4te d'Azur", "status": "OK", "street": "5 Rue du Port"}, "b_468": {"address": "14 Rue du Nord, 79000 Niort, France", "bbox": {"northeast": [46.31148911757067, -0.4545611323986888], "southwest": [46.30376368242932, -0.4694714676013112]}, "city": "Niort", "confidence": 7, "country": "France", "lat": 46.3076264, "lng": -0.4620163, "ok": true, "postal": "79000", "quality": "Address", "raw": {"__type": "Location:http://schemas.microsoft.com/search/local/ws/rest/v1", "bbox": [46.30376368242932, -0.4694714676013112, 46.31148911757067, -0.4545611323986888], "name": "14 Rue du Nord, 79000 Niort, France", "point": {"type": "Point", "coordinates": [46.3076264, -0.4620163]}, "address": {"addressLine": "14 Rue du Nord", "adminDistrict": "Nouvelle-Aquitaine", "adminDistrict2": "Deux-S\u00e8vres", "countryRegion": "France", "formattedAddress": "14 Rue du Nord, 79000 Niort, France", "locality": "Niort", "postalCode": "79000"}, "confidence": "High", "entityType": "Address", "geocodePoints": [{"type": "Point", "coordinates": [46.3076264, -0.4620163], "calculationMethod": "Rooftop", "usageTypes": ["Display"]}, {"type": "Point", "coordinates": [46.3075161, -0.4619548], "calculationMethod": "Rooftop", "usageTypes": ["Route"]}], "matchCodes": ["Good"]}, "state": "Nouvelle-Aquitaine", "status": "OK", "street": "14 Rue du Nord"}, "b_363": {"address": "15 Rue Gustave Courbet, 62100 Calais, France", "bbox": {"northeast": [50.95430471757068, 1.9161004836255], "southwest": [50.946579282429326, 1.8997515163745]}, "city": "Calais", "confidence": 7, "country": "France", "lat": 50.950442, "lng": 1.907926, "ok": true, "postal": "62100", "quality": "Address", "raw": {"__type": "Location:http://schemas.microsoft.com/search/local/ws/rest/v1", "bbox": [50.946579282429326, 1.8997515163745, 50.95430471757068, 1.9161004836255], "name": "15 Rue Gustave Courbet, 62100 Calais, France", "point": {"type": "Point", "coordinates": [50.950442, 1.907926]}, "address": {"addressLine": "15 Rue Gustave Courbet", "adminDistrict": "Hauts-de-France", "adminDistrict2": "Pas-de-Calais", "countryRegion": "France", "formattedAddress": "15 Rue Gustave Courbet, 62100 Calais, France", "locality": "Calais", "postalCode": "62100"}, "confidence": "High", "entityType": "Address", "geocodePoints": [{"type": "Point", "coordinates": [50.950442, 1.907926], "calculationMethod": "Rooftop", "usageTypes": ["Display"]}, {"type": "Point", "coordinates": [50.9504435, 1.9079489], "calculationMethod": "Rooftop", "usageTypes": ["Route"]}], "matchCodes": ["Good"]}, "state": "Hauts-de-France", "status": "OK", "street": "15 Rue Gustave Courbet"}, "b_437": {"address": "43TER Rue Pierre Martin, 72100 Le Mans, France", "bbox": {"northeast": [47.973057717570676, 0.181563820341885], "southwest": [47.96533228242932, 0.166180179658115]}, "city": "Le Mans", "confidence": 7, "country": "France", "lat": 47.969195, "lng": 0.173872, "ok": true, "postal": "72100", "quality": "Address", "raw": {"__type": "Location:http://schemas.microsoft.com/search/local/ws/rest/v1", "bbox": [47.96533228242932, 0.166180179658115, 47.973057717570676, 0.181563820341885], "name": "43TER Rue Pierre Martin, 72100 Le Mans, France", "point": {"type": "Point", "coordinates": [47.969195, 0.173872]}, "address": {"addressLine": "43TER Rue Pierre Martin", "adminDistrict": "Pays de la Loire", "adminDistrict2": "Sarthe", "countryRegion": "France", "formattedAddress": "43TER Rue Pierre Martin, 72100 Le Mans, France", "locality": "Le Mans", "postalCode": "72100"}, "confidence": "High", "entityType": "Address", "geocodePoints": [{"type": "Point", "coordinates": [47.969195, 0.173872], "calculationMethod": "Rooftop", "usageTypes": ["Display"]}, {"type": "Point", "coordinates": [47.9691284, 0.1733999], "calculationMethod": "Rooftop", "usageTypes": ["Route"]}], "matchCodes": ["Good"]}, "state": "Pays de la Loire", "status": "OK", "street": "43TER Rue Pierre Martin"}, "b_474": {"address": "1 Rue d'oustry, 81000 Albi, France", "bbox": {"northeast": [43.943538717570675, 2.1468388130002256], "southwest": [43.93581328242932, 2.132534786999775]}, "city": "Albi", "confidence": 7, "country": "France", "lat": 43.939676, "lng": 2.1396868, "ok": true, "postal": "81000", "quality": "Address", "raw": {"__type": "Location:http://schemas.microsoft.com/search/local/ws/rest/v1", "bbox": [43.93581328242932, 2.132534786999775, 43.943538717570675, 2.1468388130002256], "name": "1 Rue d'oustry, 81000 Albi, France", "point": {"type": "Point", "coordinates": [43.939676, 2.1396868]}, "address": {"addressLine": "1 Rue d'oustry", "adminDistrict": "Occitanie", "adminDistrict2": "Tarn", "countryRegion": "France", "formattedAddress": "1 Rue d'oustry, 81000 Albi, France", "locality": "Albi", "postalCode": "81000"}, "confidence": "High", "entityType": "Address", "geocodePoints": [{"type": "Point", "coordinates": [43.939676, 2.1396868], "calculationMethod": "Rooftop", "usageTypes": ["Display"]}, {"type": "Point", "coordinates": [43.9399763, 2.1396418], "calculationMethod": "Rooftop", "usageTypes": ["Route"]}], "matchCodes": ["Good"]}, "state": "Occitanie", "status": "OK", "street": "1 Rue d'oustry"}, "b_415": {"address": "65 Rue du Bourbonnais, 69009 Lyon, France", "bbox": {"northeast": [45.77744771757067, 4.804546264244603], "southwest": [45.76972228242932, 4.789779335755396]}, "city": "Lyon", "confidence": 7, "country": "France", "lat": 45.773585, "lng": 4.7971628, "neighborhood": "9th Arrondissement", "ok": true, "postal": "69009", "quality": "Address", "raw": {"__type": "Location:http://schemas.microsoft.com/search/local/ws/rest/v1", "bbox": [45.76972228242932, 4.789779335755396, 45.77744771757067, 4.804546264244603], "name": "65 Rue du Bourbonnais, 69009 Lyon, France", "point": {"type": "Point", "coordinates": [45.773585, 4.7971628]}, "address": {"addressLine": "65 Rue du Bourbonnais", "adminDistrict": "Auvergne-Rh\u00f4ne-Alpes", "adminDistrict2": "Rh\u00f4ne", "countryRegion": "France", "formattedAddress": "65 Rue du Bourbonnais, 69009 Lyon, France", "locality": "Lyon", "neighborhood": "9th Arrondissement", "postalCode": "69009"}, "confidence": "High", "entityType": "Address", "geocodePoints": [{"type": "Point", "coordinates": [45.773585, 4.7971628], "calculationMethod": "Rooftop", "usageTypes": ["Display"]}, {"type": "Point", "coordinates": [45.773629, 4.7971632], "calculationMethod": "Rooftop", "usageTypes": ["Route"]}], "matchCodes": ["Good"]}, "state": "Auvergne-Rh\u00f4ne-Alpes", "status": "OK", "street": "65 Rue du Bourbonnais"}, "b_235": {"address": "7 Rue du P\u00e8re Jean-Baptiste Salles, 34300 Agde, France", "bbox": {"northeast": [43.312732717570675, 3.5043873661953016], "southwest": [43.30500728242932, 3.4902326338046987]}, "city": "Agde", "confidence": 7, "country": "France", "lat": 43.30887, "lng": 3.49731, "ok": true, "postal": "34300", "quality": "Address", "raw": {"__type": "Location:http://schemas.microsoft.com/search/local/ws/rest/v1", "bbox": [43.30500728242932, 3.4902326338046987, 43.312732717570675, 3.5043873661953016], "name": "7 Rue du P\u00e8re Jean-Baptiste Salles, 34300 Agde, France", "point": {"type": "Point", "coordinates": [43.30887, 3.49731]}, "address": {"addressLine": "7 Rue du P\u00e8re Jean-Baptiste Salles", "adminDistrict": "Occitanie", "adminDistrict2": "H\u00e9rault", "countryRegion": "France", "formattedAddress": "7 Rue du P\u00e8re Jean-Baptiste Salles, 34300 Agde, France", "locality": "Agde", "postalCode": "34300"}, "confidence": "High", "entityType": "Address", "geocodePoints": [{"type": "Point", "coordinates": [43.30887, 3.49731], "calculationMethod": "Rooftop", "usageTypes": ["Display"]}, {"type": "Point", "coordinates": [43.3088699, 3.497361], "calculationMethod": "Rooftop", "usageTypes": ["Route"]}], "matchCodes": ["Good"]}, "state": "Occitanie", "status": "OK", "street": "7 Rue du P\u00e8re Jean-Baptiste Salles"}, "b_278": {"address": "81 Avenue de Paris, 41200 Romorantin, France", "bbox": {"northeast": [47.382237617570674, 1.7444018342095353], "southwest": [47.37451218242932, 1.7291913657904645]}, "city": "Romorantin", "confidence": 7, "country": "France", "lat": 47.3783749, "lng": 1.7367966, "ok": true, "postal": "41200", "quality": "Address", "raw": {"__type": "Location:http://schemas.microsoft.com/search/local/ws/rest/v1", "bbox": [47.37451218242932, 1.7291913657904645, 47.382237617570674, 1.7444018342095353], "name": "81 Avenue de Paris, 41200 Romorantin, France", "point": {"type": "Point", "coordinates": [47.3783749, 1.7367966]}, "address": {"addressLine": "81 Avenue de Paris", "adminDistrict": "Centre-Val de Loire", "adminDistrict2": "Loir-et-Cher", "countryRegion": "France", "formattedAddress": "81 Avenue de Paris, 41200 Romorantin, France", "locality": "Romorantin", "postalCode": "41200"}, "confidence": "High", "entityType": "Address", "geocodePoints": [{"type": "Point", "coordinates": [47.3783749, 1.7367966], "calculationMethod": "Rooftop", "usageTypes": ["Display"]}, {"type": "Point", "coordinates": [47.3783955, 1.7367223], "calculationMethod": "Rooftop", "usageTypes": ["Route"]}], "matchCodes": ["Good"]}, "state": "Centre-Val de Loire", "status": "OK", "street": "81 Avenue de Paris"}}